unit_id,timestamp_ms,iso_time,seq,roll_deg,pitch_deg,yaw_deg,mag_hdg,lat,lon,sog_mps,heading_deg,mag_x,mag_y,mag_z,ble1_roll,ble1_pitch,ble1_yaw,ble2_roll,ble2_pitch,ble2_yaw,ble3_roll,ble3_pitch,ble3_yaw,rudder_angle,boom_angle,torso_angle
RED,93751,2026-02-11T10:30:13Z,241,-1.01,0.23,102.64,102.64,28.867640,-13.833180,0.00,,-179.699,-134.428,-28.231,0.00,0.00,0.00,,,,,,,-102.64,,
RED,93966,,242,-0.99,0.19,102.66,102.66,,,0.00,,-155.709,-131.429,16.751,0.00,0.00,0.00,,,,,,,-102.66,,
RED,94137,,243,-0.99,0.19,102.73,102.73,,,0.00,,-146.712,-104.440,43.740,0.00,0.00,0.00,,,,,,,-102.73,,
RED,94309,,244,-1.00,0.18,102.73,102.73,,,0.00,,-152.710,-143.424,13.752,0.00,0.00,0.00,,,,,,,-102.73,,
RED,94479,,245,-1.00,0.17,102.73,102.73,,,0.00,,-173.701,-95.444,-7.239,0.00,0.00,0.00,,,,,,,-102.73,,
RED,94656,2026-02-11T10:30:14Z,246,-0.98,0.20,102.73,102.73,28.867655,-13.833195,0.00,,-176.700,-131.429,49.737,0.00,0.00,0.00,,,,,,,-102.73,,
RED,94834,,247,-0.96,0.22,102.73,102.73,,,0.00,,-179.699,-116.435,-16.236,0.00,0.00,0.00,,,,,,,-102.73,,
RED,95005,,248,-0.99,0.19,102.73,102.73,,,0.00,,-158.708,-146.423,-10.238,0.00,0.00,0.00,,,,,,,-102.73,,
RED,96654,,249,-1.11,0.03,102.82,102.82,,,0.00,,-164.705,-164.416,16.751,0.00,0.00,0.00,,,,,,,-102.82,,
RED,96829,2026-02-11T10:30:16Z,250,-1.07,-0.44,103.66,103.66,28.867668,-13.833155,0.00,,-146.712,-131.429,28.746,0.00,0.00,0.00,,,,,,,-103.66,,
RED,97010,,251,-0.97,-0.13,104.23,104.23,,,0.00,,-152.710,-155.419,22.748,0.00,0.00,0.00,,,,,,,-104.23,,
RED,98171,,252,-0.76,0.04,104.27,104.27,,,0.00,,-155.709,-140.425,43.740,0.00,0.00,0.00,,,,,,,-104.27,,
RED,98351,2026-02-11T10:30:17Z,253,-0.76,0.17,104.78,104.78,28.867668,-13.833119,0.00,,-149.711,-146.423,13.752,0.00,0.00,0.00,,,,,,,-104.78,,
RED,98522,,254,-0.56,0.32,104.67,104.67,,,0.00,,-176.700,-119.434,49.737,0.00,0.00,0.00,,,,,,,-104.67,,
RED,98698,2026-02-11T10:30:18Z,255,-0.72,0.26,104.75,104.75,28.867672,-13.833171,0.00,,-170.703,-128.430,34.744,0.00,0.00,0.00,,,,,,,-104.75,,
RED,98870,,256,-0.73,0.30,104.76,104.76,,,0.00,,-155.709,-152.420,1.757,0.00,0.00,0.00,,,,,,,-104.76,,
RED,99041,,257,-0.88,0.31,104.81,104.81,,,0.00,,-185.697,-128.430,-31.230,0.00,0.00,0.00,,,,,,,-104.81,,
RED,99209,,258,-0.95,0.28,104.83,104.83,,,0.00,,-152.710,-143.424,40.741,0.00,0.00,0.00,,,,,,,-104.83,,
RED,101558,2026-02-11T10:30:20Z,259,-1.07,0.20,104.85,104.85,28.867697,-13.833225,0.00,,-158.708,-170.413,7.755,0.00,0.00,0.00,,,,,,,-104.85,,
RED,101743,2026-02-11T10:30:21Z,260,-1.06,0.20,105.19,105.19,28.867701,-13.833225,0.00,,-155.709,-125.431,46.739,0.00,0.00,0.00,,,,,,,-105.19,,
RED,104414,2026-02-11T10:30:23Z,261,-0.93,0.16,105.20,105.20,28.867701,-13.833254,0.00,,-167.704,-149.422,13.752,,,,-178.93,6.45,-39.33,,,,,-144.53,
RED,104599,2026-02-11T10:30:24Z,262,-0.97,0.19,105.33,105.33,28.867704,-13.833256,0.00,,-152.710,-110.438,76.727,,,,-178.93,6.46,-39.16,,,,,-144.49,
RED,104770,,263,-0.98,0.22,105.34,105.34,,,0.00,,-155.709,-149.422,16.751,,,,-178.94,6.43,-38.44,,,,,-144.20,
RED,106419,,264,-0.98,0.14,105.35,105.35,,,0.00,,-149.711,-155.419,-1.242,,,,-178.93,6.42,-36.97,,,,,-142.33,
RED,106601,2026-02-11T10:30:26Z,265,-0.97,0.15,105.37,105.37,28.867704,-13.833258,0.00,,-176.700,-137.427,19.750,,,,-178.94,6.42,-36.66,,,,,-142.19,
RED,106773,,266,-0.97,0.20,105.37,105.37,,,0.00,,-176.700,-104.440,25.747,,,,-178.96,6.42,-36.50,,,,,-141.96,
RED,106947,,267,-0.96,0.23,105.37,105.37,,,0.00,,-164.705,-131.429,10.753,,,,-178.97,6.43,-35.93,,,,,-141.72,
RED,108594,,268,-1.05,0.07,105.38,105.38,,,0.00,,-170.703,-131.429,7.755,,,,-178.98,6.44,-34.85,,,,,-140.29,
RED,108767,2026-02-11T10:30:28Z,269,-1.00,0.14,105.43,105.43,28.867697,-13.833250,0.00,,-164.705,-158.418,22.748,,,,-178.97,6.44,-34.73,,,,,-140.16,
RED,108939,,270,-0.98,0.16,105.44,105.44,,,0.00,,-134.717,-146.423,-4.241,,,,-178.98,6.44,-34.72,,,,,-140.16,
RED,109116,,271,-0.99,0.15,105.44,105.44,,,0.00,,-182.698,-173.412,19.750,,,,-178.98,6.44,-34.66,,,,,-140.16,
RED,109285,,272,-0.98,0.19,105.48,105.48,,,0.00,,-182.698,-104.440,22.748,,,,-178.98,6.44,-34.53,,,,,-140.01,
RED,109455,,273,-0.99,0.22,105.48,105.48,,,0.00,,-185.697,-140.425,-7.239,,,,-178.98,6.44,-34.29,,,,,-139.77,
RED,109638,2026-02-11T10:30:29Z,274,-1.02,0.23,105.49,105.49,28.867693,-13.833250,0.00,,-200.691,-125.431,58.734,,,,-178.99,6.44,-34.04,,,,,-139.53,
RED,109813,,275,-1.00,0.24,105.50,105.50,,,0.00,,-167.704,-164.416,10.753,,,,-178.98,6.44,-33.90,,,,,-139.40,
RED,109986,,276,-0.99,0.25,105.50,105.50,,,0.00,,-149.711,-119.434,55.735,,,,-178.99,6.44,-33.81,,,,,-139.31,
RED,110154,,277,-1.00,0.20,105.50,105.50,,,0.00,,-179.699,-125.431,10.753,,,,-178.98,6.41,-33.37,,,,,-139.18,
RED,111802,,278,-0.91,0.16,105.50,105.50,,,0.00,,-179.699,-149.422,19.750,,,,-178.98,6.43,-32.73,,,,,-138.23,
RED,111986,2026-02-11T10:30:31Z,279,-0.93,0.18,105.56,105.56,28.867693,-13.833246,0.00,,-155.709,-125.431,40.741,,,,-178.99,6.43,-32.66,,,,,-138.22,
RED,119983,2026-02-11T10:30:39Z,280,-1.01,0.17,105.94,105.94,28.867693,-13.833246,0.00,,-161.706,-161.417,16.751,,,,,,,,,,,,
RED,121496,2026-02-11T10:30:40Z,281,-0.98,0.24,105.94,105.94,28.867693,-13.833246,0.00,,-161.706,-146.423,37.742,-179.41,0.42,-67.93,,,,,,,-173.33,,
RED,121671,2026-02-11T10:30:41Z,282,-1.00,0.25,105.96,105.96,28.867693,-13.833246,0.00,,-191.694,-125.431,19.750,-178.97,0.24,-63.24,,,,,,,-173.91,,
RED,121846,,283,-1.00,0.23,105.96,105.96,,,0.00,,-167.704,-167.414,31.745,-177.46,0.23,-62.23,,,,,,,-167.31,,
RED,122016,,284,-0.97,0.24,105.96,105.96,,,0.00,,-176.700,-119.434,28.746,-176.49,0.34,-60.86,,,,,,,-166.82,,
RED,124591,2026-02-11T10:30:43Z,285,-0.97,0.26,105.97,105.97,28.867693,-13.833246,0.00,,-146.712,-113.436,52.736,-107.73,-63.87,-118.05,-178.99,6.42,-30.39,,,,-167.29,-136.36,
RED,124770,2026-02-11T10:30:44Z,286,-0.93,0.24,106.01,106.01,28.867693,-13.833246,0.00,,-158.708,-149.422,37.742,-34.52,-11.35,147.11,-178.99,6.42,-30.39,,,,41.10,-136.40,
RED,124946,,287,-0.96,0.19,106.01,106.01,,,0.00,,-170.703,-128.430,-22.233,-39.09,5.48,129.89,-178.98,6.41,-30.36,,,,23.88,-136.37,
RED,125116,,288,-0.95,0.15,106.01,106.01,,,0.00,,-155.709,-122.433,1.757,-53.89,11.32,105.16,-178.97,6.41,-30.35,,,,-0.85,-136.36,
RED,125287,,289,-0.99,0.16,106.01,106.01,,,0.00,,-176.700,-137.427,25.747,-69.76,10.18,92.52,-178.97,6.41,-30.34,,,,-13.49,-136.35,
RED,125459,,290,-0.98,0.16,106.01,106.01,,,0.00,,-158.708,-122.433,-4.241,-94.70,-47.26,97.55,-178.96,6.40,-30.31,,,,-20.46,-136.32,
RED,125643,2026-02-11T10:30:45Z,291,-0.97,0.16,106.01,106.01,28.867693,-13.833246,0.00,,-176.700,-125.431,73.728,-121.22,-72.03,126.90,-178.96,6.40,-30.29,,,,20.89,-136.32,
RED,125862,,292,-0.98,0.18,106.01,106.01,,,0.00,,-182.698,-128.430,4.756,127.70,-42.00,-116.95,-178.97,6.40,-30.27,,,,137.04,-136.30,
RED,126037,,293,-0.91,0.15,106.01,106.01,,,0.00,,-146.712,-104.440,46.739,126.39,29.10,-86.68,-178.96,6.41,-30.25,,,,158.38,-136.26,
RED,126211,,294,-0.93,0.12,106.00,106.00,,,0.00,,-164.705,-38.467,142.700,140.25,39.10,-71.04,-178.95,6.41,-30.23,,,,-177.04,-136.23,
RED,126382,,295,-0.94,0.07,106.00,106.00,,,0.00,,-173.701,-143.424,40.741,156.10,39.26,-54.82,-178.95,6.41,-30.22,,,,-160.82,-136.22,
RED,126563,,296,-0.96,0.09,106.00,106.00,,,0.00,,-185.697,-125.431,46.739,-162.56,11.01,-32.41,-178.95,6.42,-30.21,,,,-138.41,-136.21,
RED,126743,2026-02-11T10:30:46Z,297,-0.97,0.11,105.99,105.99,28.867693,-13.833246,0.00,,-170.703,-149.422,1.757,-153.91,-4.51,-32.00,-178.95,6.42,-30.19,,,,-137.99,-136.18,
RED,126916,,298,-0.98,0.07,105.99,105.99,,,0.00,,-134.717,-131.429,37.742,-153.96,-63.96,-34.02,-178.95,6.41,-30.17,,,,-140.01,-136.16,
RED,127086,,299,-0.98,0.13,105.97,105.97,,,0.00,,-158.708,-155.419,-34.228,16.66,-80.84,145.02,-178.95,6.41,-30.15,,,,39.05,-136.14,
RED,127255,,300,-0.97,0.14,105.96,105.96,,,0.00,,-152.710,-122.433,10.753,1.17,-8.89,125.11,-178.95,6.42,-30.14,,,,27.00,-136.10,
RED,127439,,301,-1.00,0.16,105.96,105.96,,,0.00,,-143.714,-149.422,25.747,-15.82,12.34,108.38,-178.95,6.43,-30.12,,,,2.42,-136.09,
RED,127614,2026-02-11T10:30:47Z,302,-1.00,0.19,105.96,105.96,28.867693,-13.833246,0.00,,-182.698,-143.424,31.745,-53.77,0.55,72.29,-178.95,6.43,-30.12,,,,-18.66,-136.08,
RED,127792,,303,-0.99,0.21,105.96,105.96,,,0.00,,-182.698,-128.430,43.740,-67.87,-25.36,58.96,-178.96,6.43,-30.10,,,,-47.00,-136.07,
RED,127962,,304,-0.98,0.22,105.95,105.95,,,0.00,,-152.710,-122.433,16.751,-48.68,-64.37,38.34,-178.96,6.43,-30.09,,,,-53.75,-136.04,
RED,128138,,305,-0.95,0.28,105.94,105.94,,,0.00,,-167.704,-107.439,22.748,43.63,-77.03,-46.10,-178.98,6.44,-30.08,,,,-152.04,-136.02,
RED,128307,,306,-0.93,0.30,105.93,105.93,,,0.00,,-146.712,-158.418,-28.231,96.08,-55.44,-92.88,-178.98,6.44,-30.08,,,,161.19,-136.01,
RED,128484,,307,-0.93,0.26,105.93,105.93,,,0.00,,-158.708,-119.434,31.745,120.29,10.82,-90.36,-178.97,6.45,-30.08,,,,163.71,-136.01,
RED,128660,2026-02-11T10:30:48Z,308,-0.93,0.24,105.93,105.93,28.867693,-13.833246,0.00,,-173.701,-140.425,25.747,129.00,21.85,-85.80,-178.96,6.45,-30.08,,,,168.27,-136.01,
RED,128831,,309,-0.97,0.21,105.93,105.93,,,0.00,,-158.708,-119.434,58.734,-178.22,32.60,-45.87,-178.96,6.45,-30.08,,,,-151.80,-136.01,
RED,129004,,310,-0.98,0.18,105.93,105.93,,,0.00,,-167.704,-143.424,10.753,-158.69,9.05,-37.36,-178.97,6.45,-30.06,,,,-143.29,-136.01,
RED,129181,,311,-0.99,0.15,105.93,105.93,,,0.00,,-179.699,-140.425,7.755,-149.61,-22.89,-37.61,-178.98,6.45,-30.05,,,,-143.41,-135.98,
RED,129355,,312,-0.99,0.19,105.93,105.93,,,0.00,,-149.711,-164.416,7.755,-153.19,-44.81,-35.46,-178.97,6.45,-30.06,,,,-141.39,-135.99,
RED,129526,,313,-1.00,0.20,105.92,105.92,,,0.00,,-152.710,-122.433,-7.239,17.09,-55.63,130.75,-178.97,6.45,-30.05,,,,-136.79,-135.97,
RED,129710,2026-02-11T10:30:49Z,314,-1.00,0.19,105.92,105.92,28.867693,-13.833243,0.00,,-173.701,-119.434,49.737,11.41,-30.23,126.50,-178.97,6.44,-30.05,,,,20.58,-135.97,
RED,129882,,315,-1.02,0.17,105.92,105.92,,,0.00,,-182.698,-143.424,7.755,0.47,4.19,107.12,-178.97,6.44,-30.05,,,,12.10,-135.97,
RED,130058,,316,-1.03,0.23,105.92,105.92,,,0.00,,-179.699,-137.427,22.748,-8.32,12.08,94.16,-178.98,6.43,-30.05,,,,-11.76,-135.97,
RED,130228,,317,-0.99,0.19,105.92,105.92,,,0.00,,-191.694,-152.420,-25.232,-34.98,2.80,50.56,-178.98,6.43,-30.05,,,,-42.36,-135.97,
RED,130402,,318,-0.97,0.21,105.92,105.92,,,0.00,,-191.694,-146.423,28.746,-50.20,-12.97,40.79,-178.97,6.43,-30.05,,,,-65.13,-135.97,
RED,130575,,319,-0.96,0.19,105.92,105.92,,,0.00,,-158.708,-149.422,-25.232,-35.03,-40.56,28.30,-178.99,6.43,-30.06,,,,-77.62,-135.98,
RED,130749,2026-02-11T10:30:50Z,320,-0.97,0.18,105.92,105.92,28.867693,-13.833243,0.00,,-179.699,-146.423,22.748,96.39,-38.78,-84.69,-178.99,6.42,-30.06,,,,169.39,-135.98,
RED,130928,,321,-0.97,0.19,105.92,105.92,,,0.00,,-188.695,-152.420,-22.233,108.98,-12.92,-92.95,-178.98,6.42,-30.06,,,,161.13,-135.98,
RED,131097,,322,-0.99,0.20,105.91,105.91,,,0.00,,-176.700,-110.438,40.741,122.84,22.41,-90.58,-178.97,6.42,-30.05,,,,159.61,-135.96,
RED,131271,,323,-1.00,0.18,105.91,105.91,,,0.00,,-185.697,-137.427,43.740,138.70,30.84,-80.36,-178.96,6.42,-30.05,,,,173.73,-135.96,
RED,131443,,324,-0.99,0.16,105.91,105.91,,,0.00,,-164.705,-149.422,25.747,178.69,14.11,-45.85,-178.95,6.41,-30.03,,,,-158.47,-135.94,
RED,131628,2026-02-11T10:30:51Z,325,-0.97,0.18,105.90,105.90,28.867693,-13.833243,0.00,,-179.699,-137.427,25.747,-175.11,-1.07,-42.85,-178.95,6.41,-30.00,,,,-148.75,-135.92,
RED,131799,,326,-0.99,0.18,105.89,105.89,,,0.00,,-149.711,-143.424,-4.241,-173.73,-51.70,-36.39,-178.94,6.41,-29.99,,,,-148.59,-135.88,
RED,131975,,327,-0.98,0.21,105.89,105.89,,,0.00,,-170.703,-119.434,16.751,41.35,-69.89,103.77,-178.95,6.40,-29.94,,,,-2.12,-135.86,
RED,132146,,328,-1.00,0.21,105.89,105.89,,,0.00,,-161.706,-131.429,100.717,24.22,-48.77,117.87,-178.95,6.40,-29.94,,,,11.98,-135.83,
RED,132316,,329,-0.98,0.23,105.89,105.89,,,0.00,,-152.710,-155.419,-10.238,13.83,-10.95,113.34,-178.95,6.40,-29.94,,,,7.45,-135.83,
RED,132492,,330,-0.98,0.26,105.88,105.88,,,0.00,,-158.708,-143.424,13.752,4.40,3.78,101.76,-178.94,6.40,-29.93,,,,-4.12,-135.81,
RED,132681,2026-02-11T10:30:52Z,331,-0.96,0.26,105.88,105.88,28.867693,-13.833243,0.00,,-149.711,-113.436,25.747,-34.49,4.03,56.87,-178.94,6.40,-29.91,,,,-49.01,-135.79,
RED,132856,,332,-0.97,0.25,105.88,105.88,,,0.00,,-155.709,-155.419,7.755,-42.80,-5.60,50.33,-178.94,6.40,-29.91,,,,-55.55,-135.79,
RED,133025,,333,-0.99,0.23,105.88,105.88,,,0.00,,-182.698,-131.429,19.750,-43.84,-32.88,45.04,-178.94,6.41,-29.91,,,,-59.70,-135.79,
RED,133200,,334,-1.00,0.21,105.88,105.88,,,0.00,,-179.699,-155.419,31.745,51.50,-76.25,-40.21,-178.93,6.41,-29.91,,,,-146.09,-135.79,
RED,133369,,335,-1.02,0.21,105.88,105.88,,,0.00,,-152.710,-149.422,31.745,129.95,-32.39,-107.58,-178.94,6.40,-29.91,,,,154.99,-135.79,
RED,133545,,336,-1.00,0.17,105.88,105.88,,,0.00,,-155.709,-116.435,22.748,134.13,-8.51,-105.04,-178.94,6.40,-29.92,,,,149.08,-135.80,
RED,133723,2026-02-11T10:30:53Z,337,-0.98,0.18,105.86,105.86,28.867693,-13.833243,0.00,,-152.710,-143.424,25.747,166.33,20.15,-82.09,-178.95,6.41,-29.93,,,,154.06,-135.79,
RED,133904,,338,-0.95,0.17,105.86,105.86,,,0.00,,-161.706,-131.429,16.751,169.04,15.41,-75.04,-178.95,6.41,-29.94,,,,179.10,-135.80,
RED,134074,,339,-0.98,0.16,105.85,105.85,,,0.00,,-155.709,-158.418,4.756,172.61,8.41,-72.98,-178.96,6.41,-29.94,,,,178.59,-135.79,
RED,134249,,340,-1.01,0.18,105.85,105.85,,,0.00,,-176.700,-116.435,37.742,175.64,3.42,-76.91,-178.95,6.41,-29.95,,,,177.24,-135.80,
RED,134426,,341,-0.97,0.20,105.85,105.85,,,0.00,,-155.709,-143.424,37.742,176.02,-2.90,-78.05,-178.96,6.42,-29.95,,,,176.10,-135.80,
RED,134603,2026-02-11T10:30:54Z,342,-0.98,0.17,105.83,105.83,28.867693,-13.833243,0.00,,-176.700,-116.435,67.730,178.70,1.04,-75.73,-178.96,6.43,-29.95,,,,178.44,-135.78,
RED,134780,,343,-0.98,0.20,105.82,105.82,,,0.00,,-176.700,-155.419,31.745,178.80,1.01,-77.80,-178.96,6.43,-29.95,,,,176.38,-135.77,
RED,134950,,344,-0.99,0.18,105.81,105.81,,,0.00,,-191.694,-128.430,49.737,176.02,0.09,-75.82,-178.95,6.43,-29.95,,,,178.37,-135.76,
RED,135126,,345,-0.98,0.19,105.81,105.81,,,0.00,,-170.703,-122.433,46.739,175.48,0.08,-75.57,-178.97,6.43,-29.95,,,,178.62,-135.76,
RED,135294,,346,-0.98,0.17,105.80,105.80,,,0.00,,-140.715,-104.440,28.746,175.86,-0.77,-86.72,-178.97,6.43,-29.94,,,,178.89,-135.74,
RED,135471,,347,-0.95,0.18,105.80,105.80,,,0.00,,-158.708,-119.434,28.746,175.95,-0.71,-85.36,-178.97,6.43,-29.94,,,,168.84,-135.74,
RED,135651,2026-02-11T10:30:55Z,348,-0.97,0.17,105.79,105.79,28.867693,-13.833243,0.00,,-155.709,-140.425,16.751,176.05,-0.19,-73.15,-178.97,6.43,-29.92,,,,-178.94,-135.71,
RED,135829,,349,-0.95,0.21,105.79,105.79,,,0.00,,-191.694,-134.428,19.750,176.38,-0.14,-72.62,-178.97,6.44,-29.92,,,,-178.94,-135.71,
RED,135999,,350,-0.96,0.20,105.78,105.78,,,0.00,,-152.710,-149.422,13.752,176.11,-0.27,-74.75,-178.95,6.44,-29.91,,,,-179.10,-135.69,
RED,136180,,351,-1.00,0.15,105.78,105.78,,,0.00,,-170.703,-104.440,34.744,176.33,0.41,-71.72,-178.95,6.44,-29.88,,,,-177.50,-135.67,
RED,136349,,352,-1.00,0.16,105.78,105.78,,,0.00,,-194.693,-143.424,7.755,176.63,0.34,-71.00,-178.96,6.44,-29.87,,,,-176.78,-135.65,
RED,136520,,353,-0.97,0.16,105.78,105.78,,,0.00,,-173.701,-116.435,58.734,177.19,0.34,-69.69,-178.96,6.45,-29.87,,,,-175.47,-135.65,
RED,136699,2026-02-11T10:30:56Z,354,-0.94,0.18,105.77,105.77,28.867693,-13.833243,0.00,,-158.708,-152.420,-1.242,177.35,0.35,-69.37,-178.96,6.44,-29.85,,,,-175.14,-135.62,
RED,136869,,355,-0.94,0.18,105.77,105.77,,,0.00,,-146.712,-119.434,37.742,177.61,0.37,-68.91,-178.97,6.43,-29.84,,,,-174.68,-135.61,
RED,137042,,356,-0.94,0.15,105.77,105.77,,,0.00,,-170.703,-152.420,28.746,177.92,0.39,-68.37,-178.97,6.43,-29.83,,,,-174.14,-135.61,
RED,137211,,357,-0.96,0.17,105.77,105.77,,,0.00,,-146.712,-128.430,49.737,178.17,0.40,-67.91,-178.96,6.43,-29.83,,,,-173.91,-135.60,
RED,137387,,358,-0.96,0.20,105.76,105.76,,,0.00,,-170.703,-134.428,40.741,178.27,0.40,-67.72,-178.97,6.44,-29.81,,,,-173.48,-135.58,
RED,137558,,359,-0.96,0.22,105.75,105.75,,,0.00,,-170.703,-122.433,22.748,178.59,0.41,-67.15,-178.97,6.44,-29.81,,,,-173.28,-135.56,
RED,137744,2026-02-11T10:30:57Z,360,-0.96,0.23,105.75,105.75,28.867693,-13.833243,0.00,,-152.710,-110.438,67.730,178.66,0.41,-67.00,-178.97,6.44,-29.81,,,,-172.75,-135.56,
RED,137922,,361,-0.98,0.22,105.75,105.75,,,0.00,,-158.708,-116.435,1.757,178.85,0.41,-66.66,-178.97,6.44,-29.82,,,,-172.58,-135.57,
RED,138091,,362,-0.99,0.21,105.75,105.75,,,0.00,,-152.710,-74.452,34.744,178.94,0.41,-66.49,-178.99,6.43,-29.84,,,,-172.24,-135.59,
RED,138261,,363,-1.00,0.21,105.75,105.75,,,0.00,,-170.703,-125.431,7.755,179.10,0.41,-66.18,-179.00,6.43,-29.84,,,,-171.93,-135.59,
RED,138431,,364,-1.00,0.20,105.75,105.75,,,0.00,,-179.699,-134.428,58.734,179.24,0.41,-65.90,-179.00,6.43,-29.85,,,,-171.65,-135.60,
RED,138608,2026-02-11T10:30:58Z,365,-0.99,0.23,105.74,105.74,28.867693,-13.833243,0.00,,-197.692,-134.428,64.731,179.31,0.41,-65.77,-179.00,6.43,-29.87,,,,-171.51,-135.61,
RED,138780,,366,-0.98,0.22,105.74,105.74,,,0.00,,-149.711,-134.428,31.745,179.49,0.40,-65.42,-179.00,6.43,-29.87,,,,-171.37,-135.61,
RED,138949,,367,-0.98,0.22,105.74,105.74,,,0.00,,-158.708,-128.430,1.757,179.54,0.40,-65.33,-179.00,6.43,-29.88,,,,-171.07,-135.61,
RED,139120,,368,-0.97,0.18,105.74,105.74,,,0.00,,-152.710,-140.425,19.750,179.64,0.40,-65.10,-179.00,6.43,-29.88,,,,-170.96,-135.62,
RED,139291,,369,-0.95,0.17,105.74,105.74,,,0.00,,-152.710,-146.423,49.737,179.69,0.40,-64.99,-178.99,6.44,-29.87,,,,-170.73,-135.61,
RED,139461,,370,-0.95,0.16,105.74,105.74,,,0.00,,-203.689,-134.428,31.745,179.76,0.40,-64.84,-178.99,6.44,-29.87,,,,-170.58,-135.61,
RED,139647,2026-02-11T10:30:59Z,371,-0.95,0.17,105.74,105.74,28.867693,-13.833243,0.00,,-161.706,-158.418,43.740,-179.86,0.39,-63.82,-178.98,6.44,-29.85,,,,-170.39,-135.60,
RED,144428,2026-02-11T10:31:00Z,372,-1.00,0.21,105.75,105.75,28.867693,-13.833246,0.00,,-161.706,-119.434,22.748,-179.37,0.37,-62.62,173.91,0.85,-22.97,,,,-168.37,-128.72,
RED,144613,2026-02-11T10:31:04Z,373,-0.98,0.25,105.73,105.73,28.867693,-13.833246,0.00,,-164.705,-86.447,49.737,-179.36,0.36,-62.60,173.23,-0.73,-15.06,,,,-168.33,-120.79,
RED,144790,,374,-0.99,0.20,105.73,105.73,,,0.00,,-176.700,-119.434,76.727,-179.35,0.36,-62.58,171.99,0.36,-11.81,,,,-168.31,-117.54,
RED,144961,,375,-0.95,0.17,105.73,105.73,,,0.00,,-176.700,-143.424,16.751,-179.34,0.37,-62.57,176.57,-7.79,1.19,,,,-168.30,-111.91,
RED,145137,,376,-0.97,0.17,105.73,105.73,,,0.00,,-155.709,-119.434,-13.237,-179.34,0.36,-62.57,173.33,-2.17,5.10,,,,-168.30,-100.63,
RED,145310,,377,-1.00,0.18,105.73,105.73,,,0.00,,-182.698,-146.423,1.757,-179.33,0.36,-62.56,170.09,0.53,13.73,,,,-168.29,-97.80,
RED,145482,,378,-1.03,0.20,105.73,105.73,,,0.00,,-170.703,-155.419,31.745,-179.32,0.36,-62.56,179.22,-5.05,17.67,,,,-168.29,-88.06,
RED,145657,2026-02-11T10:31:05Z,379,-1.00,0.19,105.73,105.73,28.867693,-13.833246,0.00,,-161.706,-152.420,34.744,-179.32,0.36,-62.56,-153.27,-44.89,20.92,,,,-168.29,-83.94,
RED,146823,,380,-0.98,0.20,105.73,105.73,,,0.00,,-158.708,-125.431,16.751,-179.29,0.35,-62.58,-29.58,-47.03,74.34,,,,-168.31,-31.39,
RED,147007,2026-02-11T10:31:06Z,381,-1.00,0.19,105.73,105.73,28.867693,-13.833246,0.00,,-194.693,-47.463,112.712,-179.28,0.35,-62.58,98.90,-23.55,-62.16,,,,-168.31,-97.47,
RED,149569,,382,-0.99,0.18,105.70,105.70,,,0.00,,-179.699,-143.424,13.752,-179.28,0.36,-62.68,147.68,40.06,-42.52,,,,-168.40,-148.22,
RED,149745,2026-02-11T10:31:09Z,383,-1.00,0.19,105.69,105.69,28.867693,-13.833246,0.00,,-176.700,-152.420,16.751,-179.28,0.36,-62.67,-167.53,31.43,-5.21,,,,-168.36,-128.42,
RED,149917,,384,-1.03,0.24,105.68,105.68,,,0.00,,-191.694,-137.427,22.748,-179.27,0.35,-62.66,-158.83,13.25,6.04,,,,-168.35,-99.64,
RED,150091,,385,-0.98,0.24,105.68,105.68,,,0.00,,-176.700,-128.430,10.753,-179.26,0.36,-62.65,-159.52,-41.14,12.36,,,,-168.33,-93.32,
RED,150264,,386,-1.00,0.23,105.68,105.68,,,0.00,,-146.712,-137.427,28.746,-179.27,0.36,-62.63,-29.17,-70.37,-130.82,,,,-168.31,123.50,
RED,150435,,387,-0.96,0.21,105.68,105.68,,,0.00,,-164.705,-149.422,-4.241,-179.28,0.36,-62.62,-13.99,-31.27,-164.98,,,,-168.30,89.34,
RED,150614,2026-02-11T10:31:10Z,388,-0.94,0.19,105.68,105.68,28.867693,-13.833246,0.00,,-161.706,-125.431,67.730,-179.27,0.36,-62.62,-19.20,26.41,151.09,,,,-168.30,45.41,
RED,150790,,389,-0.95,0.17,105.68,105.68,,,0.00,,-164.705,-143.424,52.736,-179.28,0.36,-62.67,89.12,-72.87,-49.43,,,,-168.31,22.90,
RED,152445,,390,-0.90,0.22,105.71,105.71,,,0.00,,-158.708,-143.424,22.748,-179.26,0.35,-62.81,-130.51,-67.26,-26.22,,,,-168.51,-131.93,
RED,153623,2026-02-11T10:31:12Z,391,-0.92,0.20,105.73,105.73,28.867693,-13.833243,0.00,,-155.709,-128.430,55.735,-179.26,0.35,-62.83,69.60,-34.17,-38.79,,,,-168.56,-144.52,
RED,156456,2026-02-11T10:31:13Z,392,-1.00,0.20,105.73,105.73,28.867693,-13.833243,0.00,,-143.714,-134.428,16.751,-179.26,0.37,-62.76,158.56,-14.05,-69.46,,,,-168.49,-179.32,
RED,156641,2026-02-11T10:31:16Z,393,-1.03,0.15,105.74,105.74,28.867687,-13.833243,0.00,,-179.699,-110.438,-4.241,-179.26,0.37,-62.70,-176.81,-4.00,-73.60,,,,-168.50,-176.05,
RED,158292,,394,-0.91,0.21,105.74,105.74,,,0.00,,-191.694,-38.467,121.708,-179.28,0.37,-62.65,177.69,-0.37,-76.69,,,,-168.38,179.51,
RED,159942,,395,-0.99,0.16,105.67,105.67,,,0.00,,-185.697,-92.445,61.733,-179.26,0.37,-62.60,178.77,5.01,-74.03,,,,-168.27,-179.72,
RED,160128,2026-02-11T10:31:19Z,396,-0.99,0.19,105.66,105.66,28.867693,-13.833248,0.00,,-152.710,-119.434,43.740,-179.26,0.37,-62.58,178.86,5.05,-74.03,,,,-168.25,-179.69,
RED,160303,,397,-0.98,0.20,105.66,105.66,,,0.00,,-146.712,-146.423,16.751,-179.26,0.37,-62.56,179.49,5.25,-73.97,,,,-168.22,-179.68,
RED,160478,,398,-0.96,0.24,105.66,105.66,,,0.00,,-173.701,-131.429,31.745,-179.26,0.37,-62.51,179.58,5.28,-73.96,,,,-168.19,-179.62,
RED,160655,2026-02-11T10:31:20Z,399,-0.95,0.20,105.65,105.65,28.867693,-13.833248,0.00,,-185.697,-143.424,13.752,-179.26,0.37,-62.50,179.75,5.34,-73.95,,,,-168.15,-179.61,
RED,160825,,400,-0.95,0.17,105.65,105.65,,,0.00,,-155.709,-164.416,43.740,-179.27,0.37,-62.49,179.81,5.35,-73.94,,,,-168.14,-179.59,
RED,161001,,401,-0.95,0.14,105.64,105.64,,,0.00,,-173.701,-158.418,19.750,-179.28,0.38,-62.45,179.92,5.37,-73.93,,,,-168.09,-179.57,
RED,161178,,402,-0.96,0.15,105.64,105.64,,,0.00,,-185.697,-101.441,7.755,-179.29,0.38,-62.44,-180.00,5.41,-73.92,,,,-168.08,-179.56,
RED,161348,,403,-0.91,0.15,105.63,105.63,,,0.00,,-182.698,-152.420,1.757,-179.28,0.37,-62.41,-179.96,5.42,-73.92,,,,-168.04,-179.55,
RED,161521,,404,-0.93,0.20,105.63,105.63,,,0.00,,-173.701,-113.436,61.733,-179.29,0.37,-62.41,-179.87,5.44,-73.91,,,,-168.04,-179.54,
RED,161703,2026-02-11T10:31:21Z,405,-0.95,0.20,105.61,105.61,28.867693,-13.833248,0.00,,-185.697,-155.419,19.750,179.68,-0.66,-63.01,-179.85,5.45,-73.90,,,,-165.75,-179.51,
RED,161876,,406,-0.99,0.21,105.61,105.61,,,0.00,,-173.701,-113.436,37.742,178.15,-0.24,-64.20,-179.82,5.48,-73.90,,,,-169.81,-179.51,
RED,162047,,407,-0.96,0.19,105.61,105.61,,,0.00,,-155.709,-122.433,7.755,179.69,-0.09,-66.36,-179.81,5.49,-73.90,,,,-168.72,-179.51,
RED,162216,,408,-0.94,0.21,105.61,105.61,,,0.00,,-191.694,-104.440,28.746,-179.17,-0.27,-62.21,-179.78,5.50,-73.90,,,,-167.82,-179.51,
RED,162393,,409,-0.96,0.23,105.61,105.61,,,0.00,,-182.698,-137.427,61.733,178.91,0.33,-63.88,-179.76,5.50,-73.89,,,,-168.48,-179.50,
RED,162566,,410,-0.95,0.18,105.61,105.61,,,0.00,,-173.701,-143.424,19.750,178.07,0.83,-63.44,-179.74,5.50,-73.89,,,,-169.05,-179.50,
RED,162760,2026-02-11T10:31:22Z,411,-0.96,0.19,105.61,105.61,28.867693,-13.833248,0.00,,-185.697,-125.431,58.734,176.78,0.30,-63.41,-179.72,5.50,-73.89,,,,-168.95,-179.50,
RED,162930,,412,-1.00,0.18,105.63,105.63,,,0.00,,-158.708,-149.422,37.742,-179.18,0.21,-60.28,-179.72,5.50,-73.89,,,,-165.91,-179.52,
RED,163106,,413,-1.00,0.18,105.63,105.63,,,0.00,,-173.701,-128.430,52.736,-179.18,0.21,-60.26,-179.72,5.50,-73.89,,,,-165.89,-179.52,
RED,163276,,414,-0.97,0.17,105.63,105.63,,,0.00,,-158.708,-164.416,-1.242,-179.43,0.28,-65.69,-179.72,5.50,-73.89,,,,-171.32,-179.52,
RED,163450,,415,-0.98,0.16,105.63,105.63,,,0.00,,-149.711,-152.420,16.751,-179.46,0.27,-65.69,-179.72,5.50,-73.89,,,,-171.32,-179.52,
RED,163627,2026-02-11T10:31:23Z,416,-0.98,0.18,105.63,105.63,28.867687,-13.833246,0.00,,-176.700,-158.418,58.734,-179.16,0.27,-63.32,-179.72,5.50,-73.89,,,,-168.95,-179.52,
RED,163802,,417,-0.96,0.18,105.63,105.63,,,0.00,,-155.709,-101.441,16.751,-179.15,0.29,-63.33,-179.72,5.51,-73.90,,,,-168.96,-179.52,
RED,163972,,418,-0.97,0.17,105.63,105.63,,,0.00,,-158.708,-125.431,37.742,-179.15,0.31,-63.37,-179.72,5.51,-73.90,,,,-168.98,-179.53,
RED,164142,,419,-0.96,0.19,105.63,105.63,,,0.00,,-149.711,-134.428,16.751,-179.13,0.31,-63.44,-179.71,5.52,-73.90,,,,-169.07,-179.52,
RED,164317,,420,-0.96,0.20,105.63,105.63,,,0.00,,-194.693,-113.436,31.745,-179.11,0.32,-63.49,-179.72,5.52,-73.89,,,,-169.09,-179.52,
RED,164494,,421,-0.97,0.18,105.63,105.63,,,0.00,,-155.709,-134.428,4.756,-179.11,0.32,-63.51,-179.73,5.52,-73.90,,,,-169.14,-179.52,
RED,164677,2026-02-11T10:31:24Z,422,-0.98,0.20,105.63,105.63,28.867687,-13.833243,0.00,,-149.711,-140.425,52.736,-179.11,0.32,-63.57,-179.72,5.51,-73.90,,,,-169.17,-179.53,
RED,164848,,423,-0.98,0.22,105.63,105.63,,,0.00,,-149.711,-170.413,-43.225,-179.11,0.32,-63.59,-179.72,5.51,-73.90,,,,-169.22,-179.53,
RED,165025,,424,-1.01,0.23,105.63,105.63,,,0.00,,-161.706,-140.425,34.744,-179.11,0.32,-63.60,-179.71,5.52,-73.90,,,,-169.23,-179.53,
RED,165194,,425,-1.01,0.19,105.63,105.63,,,0.00,,-176.700,-149.422,25.747,-179.11,0.33,-63.63,-179.70,5.52,-73.90,,,,-169.26,-179.53,
RED,165369,,426,-0.96,0.19,105.63,105.63,,,0.00,,-149.711,-95.444,55.735,-179.11,0.34,-63.64,-179.71,5.53,-73.90,,,,-169.27,-179.53,
RED,165539,,427,-0.97,0.19,105.64,105.64,,,0.00,,-173.701,-131.429,-1.242,-179.11,0.34,-63.65,-179.71,5.52,-73.90,,,,-169.28,-179.54,
RED,165716,2026-02-11T10:31:25Z,428,-0.98,0.20,105.64,105.64,28.867683,-13.833243,0.00,,-158.708,-98.442,79.725,-179.11,0.34,-63.65,-179.71,5.52,-73.89,,,,-169.29,-179.54,
RED,165888,,429,-1.00,0.18,105.64,105.64,,,0.00,,-191.694,-143.424,19.750,-179.11,0.34,-63.68,-179.71,5.53,-73.89,,,,-169.30,-179.53,
RED,166057,,430,-0.43,0.28,105.66,105.66,,,0.00,,-170.703,-122.433,1.757,-179.11,0.34,-63.68,-179.71,5.52,-73.89,,,,-169.34,-179.55,
RED,166241,,431,-0.48,0.30,105.65,105.65,,,0.00,,-182.698,-146.423,-16.236,-179.12,0.34,-63.67,-179.71,5.52,-73.89,,,,-169.32,-179.54,
RED,166410,,432,-0.68,0.43,105.55,105.55,,,0.00,,-158.708,-116.435,31.745,-179.12,0.35,-63.66,-179.71,5.52,-73.88,,,,-169.21,-179.43,
RED,166586,,433,-0.73,0.40,105.46,105.46,,,0.00,,-161.706,-110.438,70.729,-179.12,0.35,-63.65,-179.72,5.51,-73.87,,,,-169.11,-179.33,
RED,166764,2026-02-11T10:31:26Z,434,-0.86,0.45,104.85,104.85,28.867683,-13.833241,0.00,,-182.698,-101.441,34.744,-179.12,0.36,-63.63,-179.72,5.50,-73.88,,,,-168.48,-178.73,
RED,166930,,435,-0.83,0.34,105.02,105.02,,,0.00,,-185.697,-128.430,25.747,-179.12,0.36,-63.61,-179.72,5.50,-73.88,,,,-168.63,-178.90,
RED,169271,2026-02-11T10:31:28Z,436,-1.00,0.29,105.75,105.75,28.867687,-13.833241,0.00,,-137.716,-137.427,-1.242,-179.12,0.37,-63.61,-179.75,5.49,-73.88,,,,-169.36,-179.63,
RED,169448,,437,-1.00,0.37,105.74,105.74,,,0.00,,-161.706,-104.440,4.756,-179.11,0.36,-63.61,-179.75,5.49,-73.88,,,,-169.35,-179.62,
RED,169624,2026-02-11T10:31:29Z,438,-0.97,0.33,105.72,105.72,28.867687,-13.833243,0.00,,-161.706,-110.438,19.750,-179.09,0.36,-63.52,-179.74,5.49,-73.88,,,,-169.31,-179.60,
RED,171275,,439,-0.98,0.28,105.63,105.63,,,0.00,,-170.703,-149.422,19.750,-179.10,0.36,-63.54,-179.72,5.47,-73.87,,,,-169.16,-179.50,
RED,171504,2026-02-11T10:31:30Z,440,-0.95,0.29,105.62,105.62,28.867687,-13.833243,0.00,,-173.701,-131.429,22.748,-179.09,0.37,-63.58,-179.72,5.45,-73.87,,,,-169.16,-179.49,
RED,173162,,441,-0.94,0.12,105.58,105.58,,,0.00,,-188.695,-107.439,25.747,-179.10,0.36,-63.67,-179.72,5.48,-73.87,,,,-169.25,-179.45,
RED,182041,2026-02-11T10:31:32Z,442,-0.99,0.23,105.77,105.77,28.867687,-13.833243,,,-152.710,-131.429,37.742,-179.05,0.37,-63.62,-179.72,5.50,-73.88,,,,-169.39,-179.65,
RED,184550,,443,-1.04,0.24,105.81,105.81,,,,,-170.703,-152.420,10.753,-179.09,0.38,-63.65,-179.72,5.48,-73.87,,,,-169.46,-179.69,
RED,184730,2026-02-11T10:31:44Z,444,-0.97,0.25,105.81,105.81,28.867687,-13.833243,0.00,,-188.695,-143.424,-13.237,-179.07,0.39,-63.77,-179.73,5.49,-73.88,,,,-169.47,-179.68,
RED,186384,,445,-0.96,0.25,105.79,105.79,,,0.00,,-185.697,-170.413,19.750,-179.07,0.39,-63.86,-179.72,5.48,-73.87,,,,-169.65,-179.66,
RED,186563,2026-02-11T10:31:45Z,446,-0.95,0.25,105.79,105.79,28.867687,-13.833243,0.00,,-182.698,-101.441,19.750,-179.06,0.39,-63.87,-179.72,5.47,-73.87,,,,-169.66,-179.66,
RED,186745,2026-02-11T10:31:46Z,447,-0.98,0.24,105.79,105.79,28.867687,-13.833243,0.00,,-158.708,-131.429,28.746,-179.07,0.39,-63.86,-179.73,5.46,-73.88,,,,-169.65,-179.67,
RED,186916,,448,-1.00,0.25,105.79,105.79,,,0.00,,-188.695,-125.431,43.740,-179.07,0.40,-63.85,-179.72,5.46,-73.88,,,,-169.64,-179.67,
RED,187088,,449,-0.98,0.22,105.79,105.79,,,0.00,,-176.700,-146.423,28.746,-179.07,0.40,-63.84,-179.73,5.46,-73.89,,,,-169.63,-179.68,
RED,187258,,450,-1.03,0.21,105.79,105.79,,,0.00,,-143.714,-119.434,25.747,-179.06,0.41,-63.82,-179.73,5.46,-73.89,,,,-169.62,-179.68,
RED,187434,,451,-1.01,0.26,105.79,105.79,,,0.00,,-188.695,-122.433,10.753,-179.07,0.41,-63.81,-179.75,5.46,-73.89,,,,-169.60,-179.67,
RED,187614,2026-02-11T10:31:47Z,452,-1.01,0.26,105.79,105.79,28.867687,-13.833243,0.00,,-188.695,-155.419,-1.242,-179.08,0.40,-63.75,-179.73,5.46,-73.89,,,,-169.56,-179.68,
RED,187786,,453,-1.02,0.25,105.79,105.79,,,0.00,,-173.701,-104.440,28.746,-179.08,0.40,-63.73,-179.74,5.47,-73.89,,,,-169.52,-179.68,
RED,187957,,454,-1.00,0.25,105.79,105.79,,,0.00,,-173.701,-140.425,25.747,-179.08,0.40,-63.71,-179.75,5.48,-73.89,,,,-169.52,-179.68,
RED,188128,,455,-1.01,0.27,105.79,105.79,,,0.00,,-167.704,-131.429,28.746,-179.09,0.40,-63.67,-179.75,5.48,-73.89,,,,-169.46,-179.68,
RED,188298,,456,-1.02,0.24,105.80,105.80,,,0.00,,-167.704,-146.423,7.755,-179.10,0.40,-63.65,-179.75,5.49,-73.89,,,,-169.45,-179.69,
RED,188477,,457,-0.97,0.24,105.80,105.80,,,0.00,,-137.716,-128.430,19.750,-179.11,0.40,-63.64,-179.75,5.49,-73.89,,,,-169.44,-179.69,
RED,188654,2026-02-11T10:31:48Z,458,-0.93,0.23,105.80,105.80,28.867687,-13.833243,0.00,,-176.700,-158.418,19.750,-179.11,0.39,-63.62,-179.72,5.48,-73.88,,,,-169.42,-179.68,
RED,188827,,459,-0.93,0.22,105.80,105.80,,,0.00,,-152.710,-143.424,-10.238,-179.11,0.39,-63.58,-179.72,5.48,-73.88,,,,-169.38,-179.68,
RED,188997,,460,-0.96,0.22,105.81,105.81,,,0.00,,-179.699,-131.429,10.753,-179.10,0.39,-63.57,-179.71,5.49,-73.88,,,,-169.38,-179.69,
RED,189175,,461,-0.98,0.23,105.81,105.81,,,0.00,,-206.688,-131.429,22.748,-179.10,0.39,-63.56,-179.71,5.49,-73.88,,,,-169.37,-179.69,
RED,189344,,462,-0.98,0.18,105.83,105.83,,,0.00,,-158.708,-167.414,-4.241,-179.11,0.39,-63.56,-179.71,5.49,-73.88,,,,-169.39,-179.71,
RED,189519,,463,-0.97,0.19,105.83,105.83,,,0.00,,-185.697,-146.423,-13.237,-179.10,0.39,-63.58,-179.71,5.48,-73.88,,,,-169.39,-179.71,
RED,189697,2026-02-11T10:31:49Z,464,-0.98,0.19,105.84,105.84,28.867683,-13.833243,0.00,,-176.700,-161.417,43.740,-179.08,0.38,-63.62,-179.72,5.49,-73.88,,,,-169.43,-179.72,
RED,191345,,465,-1.05,0.22,105.86,105.86,,,0.00,,-179.699,-101.441,19.750,-179.05,0.38,-63.68,-179.70,5.47,-73.88,,,,-169.54,-179.74,
RED,193718,2026-02-11T10:31:50Z,466,-0.96,0.25,105.91,105.91,28.867683,-13.833243,0.00,,-167.704,-116.435,19.750,-179.11,0.38,-63.83,-179.72,5.47,-73.89,,,,-169.73,-179.80,
RED,193904,2026-02-11T10:31:53Z,467,-0.96,0.17,105.91,105.91,28.867683,-13.833243,0.00,,-176.700,-122.433,64.731,-179.10,0.37,-63.84,-179.71,5.47,-73.89,,,,-169.75,-179.80,
RED,194077,,468,-0.99,0.28,105.91,105.91,,,0.00,,-188.695,-149.422,19.750,-179.11,0.37,-63.85,-179.71,5.47,-73.89,,,,-169.75,-179.80,
RED,194251,,469,-0.97,0.28,105.91,105.91,,,0.00,,-185.697,-125.431,34.744,-179.11,0.37,-63.85,-179.71,5.48,-73.89,,,,-169.76,-179.80,
RED,194422,,470,-0.95,0.26,105.91,105.91,,,0.00,,-191.694,-140.425,34.744,-179.11,0.37,-63.86,-179.70,5.49,-73.89,,,,-169.77,-179.80,
RED,194609,2026-02-11T10:31:54Z,471,-0.97,0.25,105.91,105.91,28.867687,-13.833243,0.00,,-182.698,-98.442,22.748,-179.12,0.37,-63.87,-179.69,5.49,-73.89,,,,-169.78,-179.79,
RED,194782,,472,-0.99,0.21,105.91,105.91,,,0.00,,-179.699,-155.419,34.744,-179.11,0.37,-63.87,-179.70,5.48,-73.89,,,,-169.78,-179.80,
RED,194954,,473,-0.99,0.28,105.91,105.91,,,0.00,,-185.697,-146.423,25.747,-179.10,0.39,-63.86,-179.71,5.48,-73.88,,,,-169.77,-179.79,
RED,195128,,474,-1.00,0.26,105.92,105.92,,,0.00,,-164.705,-110.438,70.729,-179.11,0.38,-63.85,-179.73,5.50,-73.88,,,,-169.79,-179.80,
RED,196777,,475,-1.02,0.28,105.92,105.92,,,0.00,,-149.711,-143.424,16.751,-179.09,0.37,-63.79,-179.73,5.51,-73.88,,,,-169.71,-179.81,
RED,196958,2026-02-11T10:31:56Z,476,-1.05,0.21,105.91,105.91,28.867683,-13.833243,0.00,,-155.709,-137.427,7.755,-179.09,0.37,-63.79,-179.73,5.50,-73.88,,,,-169.70,-179.79,
RED,197131,,477,-1.02,0.18,105.91,105.91,,,0.00,,-185.697,-116.435,16.751,-179.08,0.37,-63.80,-179.72,5.50,-73.88,,,,-169.71,-179.79,
RED,197300,,478,-1.01,0.18,105.91,105.91,,,0.00,,-155.709,-149.422,7.755,-179.07,0.38,-63.81,-179.73,5.50,-73.88,,,,-169.72,-179.79,
RED,197474,,479,-0.95,0.24,105.91,105.91,,,0.00,,-194.693,-140.425,7.755,-179.08,0.38,-63.82,-179.74,5.49,-73.88,,,,-169.73,-179.79,
RED,197654,2026-02-11T10:31:57Z,480,-1.01,0.26,105.89,105.89,28.867687,-13.833243,0.00,,-158.708,-146.423,34.744,-179.10,0.37,-63.83,-179.74,5.50,-73.88,,,,-169.72,-179.77,
RED,197839,,481,-1.00,0.29,105.89,105.89,,,0.00,,-143.714,-137.427,25.747,-179.09,0.37,-63.85,-179.75,5.51,-73.88,,,,-169.74,-179.77,
RED,198010,,482,-0.97,0.29,105.89,105.89,,,0.00,,-152.710,-152.420,70.729,-179.09,0.37,-63.81,-179.71,5.51,-73.87,,,,-169.75,-179.78,
RED,202931,2026-02-11T10:31:58Z,483,-0.99,0.27,105.95,105.95,28.867687,-13.833243,0.00,,-146.712,-134.428,10.753,-179.06,0.41,-63.87,-179.69,5.52,-73.84,,,,-169.82,-179.79,
RED,203110,2026-02-11T10:32:02Z,484,-0.97,0.22,105.95,105.95,28.867683,-13.833243,0.00,,-182.698,-161.417,19.750,-179.07,0.41,-63.92,-179.69,5.51,-73.85,,,,-169.84,-179.79,
RED,204762,,485,-0.98,0.24,105.95,105.95,,,0.00,,-149.711,-182.408,55.735,-179.10,0.39,-64.00,-179.70,5.46,-73.84,,,,-169.95,-179.79,
RED,204942,2026-02-11T10:32:04Z,486,-0.97,0.28,105.97,105.97,28.867683,-13.833246,0.00,,-152.710,-134.428,34.744,-179.09,0.38,-64.00,-179.69,5.46,-73.84,,,,-169.97,-179.81,
RED,205113,,487,-0.98,0.24,105.97,105.97,,,0.00,,-182.698,-143.424,1.757,-179.11,0.38,-64.00,-179.68,5.46,-73.84,,,,-169.97,-179.81,
RED,205284,,488,-0.97,0.26,105.97,105.97,,,0.00,,-152.710,-137.427,37.742,-179.12,0.38,-63.99,-179.69,5.46,-73.84,,,,-169.96,-179.81,
RED,205455,,489,-0.98,0.22,105.97,105.97,,,0.00,,-152.710,-146.423,34.744,-179.11,0.39,-63.98,-179.70,5.46,-73.85,,,,-169.95,-179.82,
RED,205635,2026-02-11T10:32:05Z,490,-0.96,0.23,105.96,105.96,28.867687,-13.833246,0.00,,-170.703,-110.438,31.745,-179.10,0.39,-63.96,-179.70,5.46,-73.85,,,,-169.92,-179.81,
RED,205816,,491,-0.99,0.22,105.96,105.96,,,0.00,,-185.697,-125.431,16.751,-179.10,0.39,-63.97,-179.71,5.45,-73.85,,,,-169.93,-179.81,
RED,205987,,492,-0.98,0.22,105.96,105.96,,,0.00,,-143.714,-152.420,13.752,-179.08,0.39,-63.95,-179.73,5.43,-73.85,,,,-169.91,-179.81,
RED,207636,,493,-0.93,0.22,105.95,105.95,,,0.00,,-155.709,-110.438,61.733,-179.06,0.38,-63.89,-179.72,5.44,-73.85,,,,-169.85,-179.80,
RED,207817,2026-02-11T10:32:07Z,494,-0.92,0.26,105.93,105.93,28.867687,-13.833246,0.00,,-155.709,-122.433,1.757,-179.05,0.38,-63.89,-179.73,5.45,-73.85,,,,-169.82,-179.78,
RED,207991,,495,-0.93,0.22,105.93,105.93,,,0.00,,-167.704,-164.416,-1.242,-179.06,0.39,-63.90,-179.73,5.46,-73.85,,,,-169.83,-179.78,
RED,208161,,496,-0.94,0.23,105.93,105.93,,,0.00,,-143.714,-143.424,31.745,-179.07,0.39,-63.91,-179.72,5.47,-73.85,,,,-169.84,-179.78,
RED,208337,,497,-0.94,0.23,105.93,105.93,,,0.00,,-161.706,-122.433,58.734,-179.07,0.38,-63.91,-179.74,5.47,-73.84,,,,-169.84,-179.77,
RED,208508,,498,-0.97,0.21,105.93,105.93,,,0.00,,-182.698,-119.434,28.746,-179.06,0.38,-63.92,-179.73,5.48,-73.84,,,,-169.85,-179.77,
RED,208684,2026-02-11T10:32:08Z,499,-1.01,0.23,105.92,105.92,28.867687,-13.833246,0.00,,-176.700,-128.430,31.745,-179.06,0.38,-63.93,-179.73,5.48,-73.84,,,,-169.85,-179.76,
RED,208856,,500,-1.00,0.27,105.92,105.92,,,0.00,,-182.698,-140.425,55.735,-179.07,0.37,-63.93,-179.74,5.48,-73.84,,,,-169.85,-179.76,
RED,209035,,501,-0.98,0.26,105.92,105.92,,,0.00,,-179.699,-122.433,13.752,-179.07,0.37,-63.93,-179.73,5.48,-73.84,,,,-169.85,-179.76,
RED,209207,,502,-1.01,0.27,105.92,105.92,,,0.00,,-185.697,-146.423,55.735,-179.08,0.37,-63.92,-179.72,5.44,-73.86,,,,-169.86,-179.76,
RED,214179,,503,-0.99,0.19,105.93,105.93,,,,,-140.715,-140.425,22.748,-179.09,0.37,-64.04,-179.72,5.44,-73.83,,,,-169.97,-179.76,
RED,217568,2026-02-11T10:32:13Z,504,-0.99,0.16,106.04,106.04,28.867687,-13.833246,0.00,,-152.710,-140.425,37.742,-179.05,0.39,-63.62,-179.72,5.43,-73.85,,,,-169.66,-179.89,
RED,217757,2026-02-11T10:32:17Z,505,-0.97,0.22,106.04,106.04,28.867687,-13.833246,0.00,,-167.704,-116.435,37.742,-179.05,0.39,-63.63,-179.73,5.43,-73.84,,,,-169.67,-179.88,
RED,217932,,506,-0.96,0.24,106.04,106.04,,,0.00,,-152.710,-149.422,10.753,-179.05,0.39,-63.64,-179.73,5.41,-73.84,,,,-169.68,-179.88,
RED,218107,,507,-0.97,0.21,106.05,106.05,,,0.00,,-149.711,-146.423,-7.239,-179.05,0.39,-63.67,-179.73,5.41,-73.84,,,,-169.72,-179.89,
RED,218282,,508,-0.96,0.20,106.05,106.05,,,0.00,,-188.695,-155.419,43.740,-179.05,0.39,-63.68,-179.71,5.42,-73.84,,,,-169.73,-179.89,
RED,218453,,509,-0.99,0.23,106.05,106.05,,,0.00,,-173.701,-146.423,28.746,-179.05,0.39,-63.70,-179.71,5.41,-73.83,,,,-169.74,-179.88,
RED,218633,2026-02-11T10:32:18Z,510,-0.94,0.25,106.05,106.05,28.867687,-13.833246,0.00,,-158.708,-152.420,16.751,-179.05,0.39,-63.71,-179.73,5.44,-73.83,,,,-169.76,-179.88,
RED,218811,,511,-0.98,0.25,106.05,106.05,,,0.00,,-167.704,-122.433,58.734,-179.06,0.38,-63.74,-179.68,5.43,-73.84,,,,-169.78,-179.89,
RED,222526,,512,-0.91,0.35,106.02,106.02,,,0.00,,-161.706,-128.430,7.755,-179.07,0.39,-63.69,-179.68,5.41,-73.83,,,,-169.71,-179.85,
RED,222705,2026-02-11T10:32:22Z,513,-0.95,0.31,106.02,106.02,28.867687,-13.833246,0.00,,-173.701,-134.428,34.744,-179.08,0.38,-63.69,-179.67,5.39,-73.83,,,,-169.71,-179.85,
RED,222880,,514,-0.96,0.21,106.02,106.02,,,0.00,,-176.700,-152.420,-28.231,-179.06,0.38,-63.72,-179.67,5.39,-73.83,,,,-169.72,-179.85,
RED,223055,,515,-0.98,0.20,106.01,106.01,,,0.00,,-173.701,-134.428,49.737,-179.06,0.38,-63.73,-179.68,5.38,-73.83,,,,-169.74,-179.84,
RED,223228,,516,-0.99,0.20,106.01,106.01,,,0.00,,-176.700,-149.422,31.745,-179.06,0.38,-63.73,-179.68,5.38,-73.82,,,,-169.74,-179.83,
RED,223393,,517,-1.03,0.20,106.02,106.02,,,0.00,,-161.706,-161.417,31.745,-179.06,0.37,-63.74,-179.69,5.37,-73.82,,,,-169.76,-179.84,
RED,223564,,518,-1.02,0.26,106.02,106.02,,,0.00,,-152.710,-161.417,25.747,-179.06,0.38,-63.76,-179.70,5.37,-73.82,,,,-169.78,-179.84,
RED,223740,2026-02-11T10:32:23Z,519,-0.98,0.25,106.02,106.02,28.867687,-13.833246,0.00,,-161.706,-125.431,37.742,-179.06,0.38,-63.77,-179.69,5.38,-73.83,,,,-169.78,-179.85,
RED,223913,,520,-0.98,0.24,106.02,106.02,,,0.00,,-164.705,-149.422,16.751,-179.06,0.38,-63.78,-179.69,5.38,-73.83,,,,-169.80,-179.84,
RED,224098,,521,-0.99,0.24,106.02,106.02,,,0.00,,-161.706,-122.433,10.753,-179.06,0.38,-63.80,-179.70,5.39,-73.83,,,,-169.79,-179.85,
RED,224277,,522,-0.99,0.23,106.02,106.02,,,0.00,,-152.710,-155.419,40.741,-179.07,0.37,-63.81,-179.69,5.39,-73.83,,,,-169.83,-179.85,
RED,224447,,523,-1.01,0.21,106.02,106.02,,,0.00,,-173.701,-146.423,34.744,-179.08,0.37,-63.81,-179.69,5.39,-73.83,,,,-169.83,-179.85,
RED,224629,2026-02-11T10:32:24Z,524,-0.98,0.19,106.02,106.02,28.867687,-13.833246,0.00,,-176.700,-137.427,22.748,-179.08,0.38,-63.82,-179.69,5.39,-73.83,,,,-169.84,-179.85,
RED,224802,,525,-0.98,0.22,106.03,106.03,,,0.00,,-158.708,-143.424,19.750,-179.09,0.37,-63.83,-179.69,5.40,-73.83,,,,-169.85,-179.86,
RED,224977,,526,-0.95,0.23,106.03,106.03,,,0.00,,-149.711,-164.416,40.741,-179.09,0.36,-63.83,-179.70,5.41,-73.83,,,,-169.86,-179.86,
RED,225154,,527,-0.98,0.24,106.04,106.04,,,0.00,,-158.708,-155.419,10.753,-179.09,0.37,-63.83,-179.71,5.42,-73.83,,,,-169.87,-179.87,
RED,225324,,528,-0.97,0.26,106.04,106.04,,,0.00,,-182.698,-161.417,13.752,-179.09,0.36,-63.83,-179.70,5.41,-73.83,,,,-169.87,-179.87,
RED,225494,,529,-0.94,0.27,106.03,106.03,,,0.00,,-188.695,-152.420,34.744,-179.09,0.37,-63.83,-179.69,5.42,-73.82,,,,-169.86,-179.85,
RED,226654,,530,-0.97,0.29,106.05,106.05,,,0.00,,-191.694,-155.419,-1.242,-179.11,0.36,-63.86,-179.67,5.43,-73.83,,,,-169.91,-179.88,
RED,226843,2026-02-11T10:32:26Z,531,-0.98,0.31,106.05,106.05,28.867687,-13.833246,0.00,,-185.697,-137.427,13.752,-179.10,0.36,-63.88,-179.68,5.44,-73.83,,,,-169.92,-179.88,
RED,227022,,532,-0.98,0.35,106.06,106.06,,,0.00,,-176.700,-131.429,28.746,-179.11,0.37,-63.90,-179.69,5.43,-73.83,,,,-169.96,-179.89,
RED,227197,,533,-0.97,0.34,106.06,106.06,,,0.00,,-188.695,-122.433,13.752,-179.10,0.36,-63.94,-179.68,5.43,-73.83,,,,-169.98,-179.89,
RED,227370,,534,-0.97,0.29,106.06,106.06,,,0.00,,-149.711,-152.420,16.751,-179.10,0.36,-63.96,-179.69,5.42,-73.83,,,,-170.02,-179.89,
RED,227544,,535,-0.95,0.23,106.06,106.06,,,0.00,,-170.703,-122.433,13.752,-179.07,0.37,-64.03,-179.71,5.44,-73.83,,,,-170.03,-179.89,
RED,229193,,536,-0.94,0.25,106.08,106.08,,,0.00,,-146.712,-131.429,40.741,-179.06,0.37,-63.98,-179.71,5.44,-73.81,,,,-170.06,-179.89,
RED,229373,2026-02-11T10:32:28Z,537,-0.96,0.20,106.09,106.09,28.867687,-13.833246,0.00,,-170.703,-128.430,28.746,-179.06,0.37,-63.98,-179.71,5.45,-73.81,,,,-170.07,-179.90,
RED,229548,,538,-0.94,0.23,106.09,106.09,,,0.00,,-170.703,-125.431,-13.237,-179.06,0.37,-63.98,-179.71,5.45,-73.80,,,,-170.07,-179.89,
RED,229724,2026-02-11T10:32:29Z,539,-0.95,0.27,106.09,106.09,28.867687,-13.833246,0.00,,-191.694,-122.433,31.745,-179.07,0.36,-64.00,-179.71,5.45,-73.80,,,,-170.08,-179.89,
RED,229894,,540,-0.92,0.26,106.09,106.09,,,0.00,,-149.711,-155.419,34.744,-179.07,0.36,-64.00,-179.71,5.44,-73.80,,,,-170.09,-179.89,
RED,230077,,541,-0.95,0.29,106.09,106.09,,,0.00,,-161.706,-161.417,13.752,-179.09,0.36,-64.01,-179.70,5.43,-73.80,,,,-170.10,-179.89,
RED,230254,,542,-0.94,0.22,106.09,106.09,,,0.00,,-191.694,-134.428,19.750,-179.09,0.36,-64.01,-179.70,5.42,-73.80,,,,-170.10,-179.88,
RED,230424,,543,-0.94,0.23,106.09,106.09,,,0.00,,-164.705,-179.410,40.741,-179.09,0.36,-63.99,-179.71,5.41,-73.79,,,,-170.10,-179.88,
RED,232076,,544,-0.97,0.24,106.09,106.09,,,0.00,,-185.697,-143.424,7.755,-179.06,0.38,-63.99,-179.70,5.43,-73.78,,,,-170.08,-179.88,
RED,232258,2026-02-11T10:32:31Z,545,-0.98,0.23,106.08,106.08,28.867687,-13.833246,0.00,,-176.700,-113.436,64.731,-179.08,0.38,-64.00,-179.70,5.43,-73.78,,,,-170.07,-179.86,
RED,232427,,546,-1.00,0.22,106.08,106.08,,,0.00,,-164.705,-89.446,46.739,-179.09,0.37,-64.00,-179.71,5.42,-73.79,,,,-170.08,-179.87,
RED,232609,2026-02-11T10:32:32Z,547,-1.00,0.22,106.08,106.08,28.867687,-13.833246,0.00,,-152.710,-119.434,52.736,-179.10,0.37,-64.01,-179.73,5.43,-73.78,,,,-170.09,-179.86,
RED,232783,,548,-1.03,0.21,106.08,106.08,,,0.00,,-167.704,-92.445,31.745,-179.09,0.37,-64.02,-179.72,5.44,-73.78,,,,-170.10,-179.87,
RED,232967,,549,-0.97,0.20,106.08,106.08,,,0.00,,-185.697,-143.424,10.753,-179.07,0.36,-64.02,-179.73,5.45,-73.79,,,,-170.10,-179.87,
RED,234614,,550,-1.01,0.16,106.12,106.12,,,0.00,,-158.708,-137.427,1.757,-179.06,0.37,-63.92,-179.73,5.45,-73.79,,,,-170.04,-179.91,
RED,234800,2026-02-11T10:32:34Z,551,-1.01,0.24,106.12,106.12,28.867687,-13.833246,0.00,,-164.705,-95.444,58.734,-179.06,0.36,-63.89,-179.71,5.44,-73.79,,,,-170.03,-179.91,
RED,236450,,552,-1.00,0.33,106.15,106.15,,,0.00,,-164.705,-149.422,73.728,-179.04,0.38,-63.96,-179.70,5.45,-73.78,,,,-170.10,-179.93,
RED,236632,2026-02-11T10:32:36Z,553,-1.01,0.30,106.15,106.15,28.867687,-13.833246,0.00,,-191.694,-125.431,13.752,-179.04,0.38,-63.96,-179.69,5.46,-73.78,,,,-170.11,-179.93,
RED,236804,,554,-1.02,0.30,106.16,106.16,,,0.00,,-167.704,-158.418,16.751,-179.03,0.38,-63.96,-179.69,5.46,-73.78,,,,-170.12,-179.94,
RED,236983,,555,-1.01,0.27,106.16,106.16,,,0.00,,-170.703,-158.418,4.756,-179.04,0.39,-63.96,-179.68,5.46,-73.78,,,,-170.12,-179.94,
RED,237161,,556,-0.97,0.31,106.16,106.16,,,0.00,,-167.704,-152.420,19.750,-179.05,0.39,-63.94,-179.68,5.45,-73.79,,,,-170.11,-179.95,
RED,237334,,557,-0.99,0.25,106.16,106.16,,,0.00,,-155.709,-149.422,4.756,-179.05,0.39,-63.94,-179.68,5.45,-73.78,,,,-170.10,-179.95,
RED,238497,,558,-0.88,0.29,106.20,106.20,,,0.00,,-149.711,-176.411,31.745,-179.07,0.38,-63.95,-179.67,5.42,-73.80,,,,-170.16,-180.00,
RED,238679,2026-02-11T10:32:38Z,559,-0.96,0.30,106.20,106.20,28.867687,-13.833246,0.00,,-164.705,-134.428,55.735,-179.07,0.38,-63.95,-179.68,5.42,-73.80,,,,-170.15,-179.99,
RED,238851,,560,-0.99,0.28,106.20,106.20,,,0.00,,-170.703,-113.436,1.757,-179.05,0.39,-63.94,-179.69,5.41,-73.79,,,,-170.15,-179.99,
RED,239034,,561,-1.00,0.28,106.20,106.20,,,0.00,,-194.693,-59.458,133.703,-179.06,0.39,-63.94,-179.69,5.41,-73.79,,,,-170.14,-180.00,
RED,239212,,562,-1.02,0.22,106.20,106.20,,,0.00,,-188.695,-146.423,-4.241,-179.06,0.39,-63.92,-179.69,5.42,-73.80,,,,-170.12,-180.00,
RED,239385,,563,-0.99,0.22,106.20,106.20,,,0.00,,-179.699,-131.429,34.744,-179.06,0.39,-63.91,-179.68,5.42,-73.79,,,,-170.11,-180.00,
RED,239555,,564,-1.00,0.26,106.20,106.20,,,0.00,,-176.700,-146.423,13.752,-179.07,0.39,-63.89,-179.69,5.42,-73.80,,,,-170.10,-180.00,
RED,239732,2026-02-11T10:32:39Z,565,-0.95,0.27,106.20,106.20,28.867687,-13.833246,0.00,,-167.704,-122.433,106.714,-179.07,0.38,-63.87,-179.68,5.41,-73.80,,,,-170.07,-180.00,
RED,239902,,566,-0.95,0.29,106.19,106.19,,,0.00,,-176.700,-113.436,34.744,-179.06,0.38,-63.87,-179.68,5.41,-73.80,,,,-170.06,-179.99,
RED,240077,,567,-0.95,0.28,106.19,106.19,,,0.00,,-185.697,-104.440,7.755,-179.07,0.37,-63.89,-179.68,5.41,-73.79,,,,-170.08,-179.98,
RED,240252,,568,-0.97,0.29,106.17,106.17,,,0.00,,-149.711,-155.419,46.739,-179.08,0.38,-63.94,-179.68,5.44,-73.80,,,,-170.07,-179.96,
RED,241902,,569,-0.99,0.29,106.16,106.16,,,0.00,,-182.698,-104.440,40.741,-179.09,0.38,-63.85,-179.72,5.44,-73.80,,,,-170.01,-179.96,
RED,242088,2026-02-11T10:32:41Z,570,-1.00,0.28,106.16,106.16,28.867687,-13.833246,0.00,,-170.703,-113.436,13.752,-179.11,0.38,-63.82,-179.72,5.44,-73.80,,,,-169.99,-179.96,
RED,242282,,571,-0.97,0.27,106.16,106.16,,,0.00,,-173.701,-149.422,19.750,-179.10,0.37,-63.82,-179.73,5.44,-73.81,,,,-169.98,-179.97,
RED,242451,,572,-0.96,0.25,106.17,106.17,,,0.00,,-158.708,-152.420,13.752,-179.09,0.38,-63.82,-179.73,5.45,-73.81,,,,-169.99,-179.98,
RED,242627,2026-02-11T10:32:42Z,573,-0.96,0.25,106.17,106.17,28.867687,-13.833246,0.00,,-158.708,-143.424,16.751,-179.10,0.37,-63.83,-179.73,5.43,-73.81,,,,-170.00,-179.98,
RED,242798,,574,-0.99,0.21,106.17,106.17,,,0.00,,-143.714,-140.425,28.746,-179.07,0.38,-63.85,-179.72,5.42,-73.81,,,,-170.00,-179.98,
RED,242972,,575,-0.98,0.19,106.16,106.16,,,0.00,,-164.705,-122.433,46.739,-179.08,0.38,-63.85,-179.72,5.42,-73.81,,,,-170.01,-179.97,
RED,243147,,576,-0.98,0.15,106.16,106.16,,,0.00,,-191.694,-125.431,22.748,-179.08,0.39,-63.87,-179.73,5.41,-73.80,,,,-170.03,-179.96,
RED,243318,,577,-0.99,0.18,106.16,106.16,,,0.00,,-182.698,-119.434,37.742,-179.09,0.38,-63.89,-179.73,5.41,-73.80,,,,-170.05,-179.96,
RED,243489,,578,-0.95,0.23,106.16,106.16,,,0.00,,-179.699,-137.427,19.750,-179.09,0.37,-63.89,-179.74,5.42,-73.80,,,,-170.05,-179.96,
RED,243668,2026-02-11T10:32:43Z,579,-0.94,0.22,106.16,106.16,28.867687,-13.833246,0.00,,-161.706,-167.414,43.740,-179.09,0.36,-63.89,-179.73,5.42,-73.80,,,,-170.05,-179.96,
RED,243841,,580,-0.96,0.21,106.16,106.16,,,0.00,,-176.700,-134.428,4.756,-179.09,0.37,-63.89,-179.73,5.43,-73.79,,,,-170.05,-179.95,
RED,244024,,581,-1.00,0.24,106.15,106.15,,,0.00,,-152.710,-167.414,19.750,-179.08,0.39,-63.90,-179.73,5.44,-73.79,,,,-170.04,-179.94,
RED,244202,,582,-1.00,0.25,106.15,106.15,,,0.00,,-173.701,-125.431,22.748,-179.08,0.39,-63.91,-179.72,5.45,-73.79,,,,-170.06,-179.94,
RED,244371,,583,-1.00,0.25,106.15,106.15,,,0.00,,-173.701,-161.417,7.755,-179.09,0.38,-63.90,-179.72,5.43,-73.79,,,,-170.05,-179.94,
RED,244543,,584,-1.00,0.23,106.15,106.15,,,0.00,,-155.709,-143.424,31.745,-179.09,0.38,-63.91,-179.73,5.43,-73.78,,,,-170.06,-179.94,
RED,244722,2026-02-11T10:32:44Z,585,-0.99,0.28,106.15,106.15,28.867687,-13.833246,0.00,,-149.711,-149.422,1.757,-179.06,0.37,-63.91,-179.73,5.44,-73.79,,,,-170.07,-179.94,
RED,246373,,586,-0.84,0.18,106.17,106.17,,,0.00,,-164.705,-164.416,-1.242,-179.09,0.36,-64.03,-179.70,5.40,-73.79,,,,-170.20,-179.96,
RED,246555,2026-02-11T10:32:45Z,587,-0.89,0.18,106.17,106.17,28.867687,-13.833246,0.00,,-146.712,-155.419,40.741,-179.09,0.35,-64.06,-179.70,5.40,-73.79,,,,-170.23,-179.96,
RED,246738,2026-02-11T10:32:46Z,588,-0.90,0.21,106.17,106.17,28.867687,-13.833246,0.00,,-158.708,-143.424,46.739,-179.09,0.35,-64.06,-179.69,5.42,-73.79,,,,-170.23,-179.96,
RED,246908,,589,-0.95,0.28,106.19,106.19,,,0.00,,-158.708,-143.424,28.746,-179.09,0.34,-64.06,-179.69,5.43,-73.79,,,,-170.25,-179.98,
RED,247083,,590,-1.01,0.27,106.20,106.20,,,0.00,,-182.698,-146.423,1.757,-179.09,0.34,-64.05,-179.69,5.43,-73.79,,,,-170.25,-179.99,
RED,247267,,591,-1.00,0.26,106.21,106.21,,,0.00,,-149.711,-149.422,19.750,-179.10,0.34,-64.03,-179.69,5.44,-73.79,,,,-170.24,-180.00,
RED,248429,,592,-0.98,0.25,106.25,106.25,,,0.00,,-167.704,-140.425,31.745,-179.12,0.35,-64.02,-179.70,5.41,-73.80,,,,-170.27,179.95,
RED,248607,2026-02-11T10:32:48Z,593,-0.95,0.26,106.26,106.26,28.867687,-13.833246,0.00,,-158.708,-119.434,61.733,-179.12,0.35,-64.05,-179.70,5.39,-73.80,,,,-170.31,179.94,
RED,248782,,594,-0.91,0.26,106.27,106.27,,,0.00,,-152.710,-167.414,31.745,-179.11,0.36,-64.08,-179.70,5.39,-73.80,,,,-170.35,179.93,
RED,248959,,595,-0.93,0.22,106.27,106.27,,,0.00,,-179.699,-68.455,121.708,-179.12,0.36,-64.11,-179.71,5.40,-73.80,,,,-170.38,179.93,
RED,249136,,596,-0.96,0.24,106.27,106.27,,,0.00,,-158.708,-158.418,7.755,-179.12,0.36,-64.13,-179.70,5.42,-73.80,,,,-170.40,179.93,
RED,249310,,597,-0.94,0.27,106.27,106.27,,,0.00,,-194.693,-137.427,25.747,-179.10,0.36,-64.19,-179.70,5.42,-73.80,,,,-170.46,179.93,
RED,249482,,598,-0.93,0.25,106.28,106.28,,,0.00,,-179.699,-161.417,22.748,-179.11,0.36,-64.20,-179.71,5.44,-73.80,,,,-170.48,179.92,
RED,249663,2026-02-11T10:32:49Z,599,-0.92,0.20,106.28,106.28,28.867687,-13.833246,0.00,,-164.705,-149.422,-4.241,-179.10,0.37,-64.23,-179.71,5.44,-73.80,,,,-170.50,179.92,
RED,249835,,600,-0.94,0.23,106.28,106.28,,,0.00,,-188.695,-143.424,19.750,-179.07,0.37,-64.29,-179.72,5.44,-73.80,,,,-170.52,179.93,
RED,251488,,601,-0.95,0.27,106.27,106.27,,,0.00,,-176.700,-95.444,88.722,-179.09,0.35,-64.31,-179.71,5.43,-73.79,,,,-170.58,179.94,
RED,251667,2026-02-11T10:32:51Z,602,-0.91,0.23,106.27,106.27,28.867687,-13.833246,0.00,,-176.700,-125.431,55.735,-179.11,0.35,-64.27,-179.72,5.41,-73.78,,,,-170.56,179.95,
RED,251845,,603,-0.92,0.25,106.27,106.27,,,0.00,,-191.694,-74.452,145.698,-179.12,0.36,-64.26,-179.71,5.41,-73.78,,,,-170.53,179.95,
RED,252022,,604,-0.94,0.24,106.27,106.27,,,0.00,,-191.694,-152.420,-1.242,-179.12,0.36,-64.25,-179.71,5.43,-73.78,,,,-170.52,179.95,
RED,252200,,605,-0.95,0.26,106.27,106.27,,,0.00,,-161.706,-131.429,13.752,-179.11,0.35,-64.21,-179.70,5.42,-73.77,,,,-170.48,179.96,
RED,252371,,606,-0.93,0.25,106.27,106.27,,,0.00,,-191.694,-131.429,28.746,-179.11,0.35,-64.18,-179.71,5.41,-73.77,,,,-170.45,179.96,
RED,252542,,607,-0.94,0.26,106.27,106.27,,,0.00,,-191.694,-137.427,4.756,-179.11,0.35,-64.15,-179.71,5.42,-73.77,,,,-170.44,179.96,
RED,252746,2026-02-11T10:32:52Z,608,-0.97,0.24,106.26,106.26,28.867687,-13.833246,0.00,,-137.716,-134.428,28.746,-179.11,0.35,-64.14,-179.69,5.41,-73.78,,,,-170.40,179.96,
RED,252918,,609,-1.00,0.20,106.26,106.26,,,0.00,,-164.705,-158.418,28.746,-179.13,0.34,-64.12,-179.69,5.42,-73.78,,,,-170.38,179.96,
RED,253096,,610,-1.01,0.21,106.26,106.26,,,0.00,,-152.710,-140.425,52.736,-179.13,0.34,-64.11,-179.70,5.43,-73.79,,,,-170.37,179.95,
RED,253281,,611,-1.01,0.22,106.26,106.26,,,0.00,,-203.689,-137.427,7.755,-179.12,0.34,-64.12,-179.69,5.43,-73.78,,,,-170.38,179.96,
RED,253452,,612,-0.98,0.22,106.24,106.24,,,0.00,,-170.703,-122.433,34.744,-179.12,0.35,-64.13,-179.70,5.43,-73.78,,,,-170.37,179.98,
RED,253632,2026-02-11T10:32:53Z,613,-0.96,0.24,106.23,106.23,28.867687,-13.833246,0.00,,-149.711,-131.429,31.745,-179.12,0.34,-64.16,-179.71,5.43,-73.78,,,,-170.39,179.99,
RED,253805,,614,-0.96,0.21,106.23,106.23,,,0.00,,-170.703,-122.433,25.747,-179.12,0.37,-64.27,-179.71,5.43,-73.78,,,,-170.41,179.99,
RED,255455,,615,-0.96,0.18,106.22,106.22,,,0.00,,-173.701,-131.429,34.744,-179.06,0.37,-64.37,-179.72,5.44,-73.77,,,,-170.59,-179.99,
RED,257716,2026-02-11T10:32:55Z,616,-0.96,0.25,106.23,106.23,28.867687,-13.833246,0.00,,-146.712,-113.436,46.739,-179.11,0.33,-64.25,-179.70,5.42,-73.77,,,,-170.48,180.00,
RED,257905,2026-02-11T10:32:57Z,617,-0.99,0.30,106.28,106.28,28.867687,-13.833246,0.00,,-155.709,-131.429,-7.239,-179.12,0.33,-64.25,-179.68,5.43,-73.77,,,,-170.53,179.95,
RED,258081,,618,-0.96,0.30,106.28,106.28,,,0.00,,-155.709,-131.429,22.748,-179.14,0.34,-64.25,-179.68,5.43,-73.77,,,,-170.53,179.95,
RED,258255,,619,-0.96,0.30,106.28,106.28,,,0.00,,-170.703,-155.419,61.733,-179.13,0.34,-64.26,-179.67,5.44,-73.77,,,,-170.54,179.95,
RED,258424,,620,-0.98,0.30,106.28,106.28,,,0.00,,-164.705,-164.416,-34.228,-179.11,0.34,-64.27,-179.67,5.44,-73.77,,,,-170.54,179.95,
RED,258611,2026-02-11T10:32:58Z,621,-0.97,0.28,106.28,106.28,28.867687,-13.833243,0.00,,-149.711,-131.429,40.741,-179.10,0.35,-64.28,-179.68,5.43,-73.77,,,,-170.56,179.95,
RED,258783,,622,-0.96,0.23,106.28,106.28,,,0.00,,-167.704,-149.422,4.756,-179.10,0.35,-64.28,-179.70,5.42,-73.77,,,,-170.56,179.95,
RED,258960,,623,-0.96,0.19,106.28,106.28,,,0.00,,-173.701,-110.438,1.757,-179.10,0.36,-64.28,-179.70,5.42,-73.77,,,,-170.56,179.95,
RED,259135,,624,-0.96,0.20,106.28,106.28,,,0.00,,-155.709,-158.418,34.744,-179.09,0.37,-64.28,-179.69,5.42,-73.77,,,,-170.56,179.95,
RED,259307,,625,-0.96,0.24,106.28,106.28,,,0.00,,-176.700,-122.433,37.742,-179.09,0.36,-64.27,-179.68,5.43,-73.77,,,,-170.55,179.95,
RED,259481,,626,-0.97,0.23,106.28,106.28,,,0.00,,-161.706,-122.433,19.750,-179.08,0.37,-64.23,-179.68,5.44,-73.77,,,,-170.54,179.95,
RED,259659,2026-02-11T10:32:59Z,627,-0.94,0.22,106.28,106.28,28.867687,-13.833243,0.00,,-167.704,-95.444,31.745,-179.08,0.37,-64.21,-179.67,5.43,-73.77,,,,-170.49,179.95,
RED,259837,,628,-0.92,0.19,106.28,106.28,,,0.00,,-170.703,-143.424,37.742,-179.06,0.37,-64.19,-179.69,5.42,-73.78,,,,-170.48,179.94,
RED,260014,,629,-0.94,0.20,106.28,106.28,,,0.00,,-164.705,-167.414,34.744,-179.06,0.37,-64.17,-179.70,5.42,-73.76,,,,-170.45,179.95,
RED,260191,,630,-0.97,0.20,106.28,106.28,,,0.00,,-155.709,-146.423,16.751,-179.07,0.38,-64.16,-179.70,5.42,-73.77,,,,-170.44,179.95,
RED,260367,,631,-0.96,0.20,106.27,106.27,,,0.00,,-167.704,-152.420,1.757,-179.09,0.37,-64.15,-179.71,5.43,-73.76,,,,-170.42,179.97,
RED,260539,,632,-0.96,0.25,106.27,106.27,,,0.00,,-161.706,-152.420,1.757,-179.08,0.37,-64.15,-179.69,5.42,-73.76,,,,-170.42,179.97,
RED,260715,2026-02-11T10:33:00Z,633,-0.91,0.25,106.27,106.27,28.867687,-13.833243,0.00,,-173.701,-146.423,22.748,-179.09,0.36,-64.14,-179.69,5.41,-73.76,,,,-170.41,179.97,
RED,260887,,634,-0.93,0.26,106.27,106.27,,,0.00,,-167.704,-155.419,31.745,-179.07,0.37,-64.14,-179.70,5.41,-73.77,,,,-170.41,179.97,
RED,261065,,635,-0.97,0.30,106.27,106.27,,,0.00,,-161.706,-152.420,13.752,-179.05,0.36,-64.14,-179.69,5.44,-73.76,,,,-170.41,179.96,
RED,262714,,636,-1.00,0.37,106.26,106.26,,,0.00,,-170.703,-149.422,22.748,-179.08,0.36,-64.14,-179.69,5.44,-73.78,,,,-170.40,179.96,
RED,263895,2026-02-11T10:33:02Z,637,-0.97,0.27,106.26,106.26,28.867687,-13.833243,0.00,,-155.709,-140.425,43.740,-179.09,0.37,-64.03,-179.71,5.43,-73.78,,,,-170.29,179.96,
RED,281248,2026-02-11T10:33:03Z,638,-0.91,0.25,106.44,106.44,28.867687,-13.833243,,,-146.712,-143.424,-7.239,-179.08,0.38,-64.09,-179.70,5.43,-73.74,,,,-170.53,179.82,
RED,284305,2026-02-11T10:33:20Z,639,-0.97,0.25,106.43,106.43,28.867687,-13.833243,0.00,,-197.692,-98.442,64.731,-179.03,0.39,-63.79,-179.70,5.44,-73.74,,,,-170.22,179.83,
RED,284484,2026-02-11T10:33:23Z,640,-0.96,0.27,106.43,106.43,28.867687,-13.833243,0.00,,-176.700,-50.462,40.741,-179.03,0.39,-63.81,-179.71,5.44,-73.74,,,,-170.24,179.83,
RED,284680,2026-02-11T10:33:24Z,641,-0.97,0.28,106.43,106.43,28.867687,-13.833243,0.00,,-158.708,-143.424,19.750,-179.05,0.39,-63.84,-179.71,5.45,-73.74,,,,-170.25,179.83,
RED,284858,,642,-0.99,0.27,106.43,106.43,,,0.00,,-146.712,-152.420,46.739,-179.06,0.39,-63.84,-179.72,5.46,-73.74,,,,-170.27,179.82,
RED,285034,,643,-0.98,0.28,106.43,106.43,,,0.00,,-194.693,-158.418,31.745,-179.06,0.40,-63.85,-179.71,5.46,-73.74,,,,-170.28,179.83,
RED,285211,,644,-0.94,0.30,106.43,106.43,,,0.00,,-191.694,-143.424,25.747,-179.05,0.40,-63.85,-179.72,5.46,-73.74,,,,-170.28,179.83,
RED,285379,,645,-0.95,0.27,106.43,106.43,,,0.00,,-158.708,-113.436,-25.232,-179.03,0.40,-63.85,-179.73,5.46,-73.74,,,,-170.26,179.83,
RED,287027,,646,-1.02,0.25,106.42,106.42,,,0.00,,-155.709,-152.420,-4.241,-179.05,0.39,-63.95,-179.72,5.45,-73.73,,,,-170.37,179.85,
RED,287217,2026-02-11T10:33:26Z,647,-1.03,0.28,106.42,106.42,28.867687,-13.833243,0.00,,-143.714,-116.435,19.750,-179.05,0.39,-63.95,-179.73,5.45,-73.73,,,,-170.37,179.85,
RED,287391,,648,-0.98,0.29,106.42,106.42,,,0.00,,-155.709,-125.431,7.755,-179.04,0.40,-63.94,-179.72,5.45,-73.72,,,,-170.36,179.85,
RED,287562,,649,-1.02,0.26,106.42,106.42,,,0.00,,-182.698,-128.430,13.752,-179.04,0.40,-63.93,-179.73,5.46,-73.72,,,,-170.35,179.86,
RED,287740,2026-02-11T10:33:27Z,650,-1.00,0.24,106.42,106.42,28.867687,-13.833243,0.00,,-179.699,-137.427,-7.239,-179.05,0.38,-63.91,-179.72,5.45,-73.72,,,,-170.33,179.86,
RED,287924,,651,-1.02,0.28,106.42,106.42,,,0.00,,-182.698,-149.422,13.752,-179.05,0.39,-63.89,-179.71,5.45,-73.72,,,,-170.32,179.86,
RED,288102,,652,-0.96,0.28,106.42,106.42,,,0.00,,-161.706,-155.419,25.747,-179.03,0.40,-63.88,-179.71,5.45,-73.72,,,,-170.30,179.86,
RED,288277,,653,-0.94,0.34,106.41,106.41,,,0.00,,-158.708,-104.440,46.739,-179.06,0.38,-63.83,-179.70,5.45,-73.73,,,,-170.29,179.87,
RED,292001,2026-02-11T10:33:28Z,654,-0.95,0.25,106.41,106.41,28.867687,-13.833243,0.00,,-137.716,-158.418,-4.241,-179.02,0.39,-63.81,-179.68,5.43,-73.70,,,,-170.22,179.89,
RED,292188,2026-02-11T10:33:31Z,655,-0.90,0.28,106.41,106.41,28.867687,-13.833243,0.00,,-164.705,-128.430,-4.241,-179.03,0.38,-63.81,-179.67,5.45,-73.70,,,,-170.22,179.89,
RED,292363,,656,-0.94,0.28,106.41,106.41,,,0.00,,-155.709,-173.412,-19.234,-179.04,0.38,-63.83,-179.68,5.46,-73.70,,,,-170.23,179.89,
RED,292537,,657,-0.95,0.25,106.41,106.41,,,0.00,,-182.698,-116.435,61.733,-179.04,0.39,-63.88,-179.67,5.46,-73.70,,,,-170.26,179.89,
RED,294188,,658,-0.97,0.27,106.39,106.39,,,0.00,,-173.701,-140.425,25.747,-179.04,0.38,-64.03,-179.68,5.47,-73.71,,,,-170.42,179.90,
RED,294365,2026-02-11T10:33:33Z,659,-0.91,0.25,106.39,106.39,28.867687,-13.833243,0.00,,-176.700,-161.417,25.747,-179.04,0.39,-64.06,-179.68,5.47,-73.71,,,,-170.43,179.90,
RED,296015,,660,-0.99,0.18,106.39,106.39,,,0.00,,-170.703,-158.418,-31.230,-179.06,0.41,-64.05,-179.70,5.47,-73.71,,,,-170.44,179.90,
RED,298849,2026-02-11T10:33:35Z,661,-1.02,0.32,106.35,106.35,28.867687,-13.833243,0.00,,-161.706,-131.429,40.741,-179.04,0.39,-63.76,-179.68,5.44,-73.70,,,,-170.10,179.95,
RED,299037,2026-02-11T10:33:38Z,662,-1.01,0.28,106.35,106.35,28.867687,-13.833243,0.00,,-152.710,-140.425,-7.239,-179.06,0.39,-63.75,-179.69,5.45,-73.71,,,,-170.10,179.94,
RED,299215,,663,-1.00,0.32,106.35,106.35,,,0.00,,-167.704,-161.417,37.742,-179.08,0.37,-63.73,-179.69,5.45,-73.71,,,,-170.08,179.94,
